{
  "type": "FeatureCollection",
  "features": [
    {
      "type": "Feature",
      "geometry": {
        "type": "Point",
        "coordinates": [
          139.7006,
          35.6901
        ]
      },
      "properties": {
        "station_name": "新宿",
        "line_name": "中央線",
        "operator_name": "JR東日本",
        "prefecture": "",
        "ridership": 1301204,
        "year": 2023
      }
    },
    {
      "type": "Feature",
      "geometry": {
        "type": "Point",
        "coordinates": [
          139.6992,
          35.69
        ]
      },
      "properties": {
        "station_name": "新宿",
        "line_name": "京王線",
        "operator_name": "京王電鉄",
        "prefecture": "",
        "ridership": 1050497,
        "year": 2023
      }
    },
    {
      "type": "Feature",
      "geometry": {
        "type": "Point",
        "coordinates": [
          139.7026,
          35.6591
        ]
      },
      "properties": {
        "station_name": "渋谷",
        "line_name": "東横線",
        "operator_name": "東急電鉄",
        "prefecture": "",
        "ridership": 1036352,
        "year": 2023
      }
    },
    {
      "type": "Feature",
      "geometry": {
        "type": "Point",
        "coordinates": [
          139.7111,
          35.7303
        ]
      },
      "properties": {
        "station_name": "池袋",
        "line_name": "山手線",
        "operator_name": "JR東日本",
        "prefecture": "",
        "ridership": 979866,
        "year": 2023
      }
    },
    {
      "type": "Feature",
      "geometry": {
        "type": "Point",
        "coordinates": [
          139.7667,
          35.681
        ]
      },
      "properties": {
        "station_name": "東京",
        "line_name": "東海道線",
        "operator_name": "JR東日本",
        "prefecture": "",
        "ridership": 807662,
        "year": 2023
      }
    },
    {
      "type": "Feature",
      "geometry": {
        "type": "Point",
        "coordinates": [
          135.4951,
          34.7023
        ]
      },
      "properties": {
        "station_name": "大阪",
        "line_name": "東海道線",
        "operator_name": "JR西日本",
        "prefecture": "",
        "ridership": 734838,
        "year": 2023
      }
    },
    {
      "type": "Feature",
      "geometry": {
        "type": "Point",
        "coordinates": [
          139.6223,
          35.4654
        ]
      },
      "properties": {
        "station_name": "横浜",
        "line_name": "東海道線",
        "operator_name": "JR東日本",
        "prefecture": "",
        "ridership": 724696,
        "year": 2023
      }
    },
    {
      "type": "Feature",
      "geometry": {
        "type": "Point",
        "coordinates": [
          139.7017,
          35.6581
        ]
      },
      "properties": {
        "station_name": "渋谷",
        "line_name": "山手線",
        "operator_name": "JR東日本",
        "prefecture": "",
        "ridership": 628118,
        "year": 2023
      }
    },
    {
      "type": "Feature",
      "geometry": {
        "type": "Point",
        "coordinates": [
          139.7385,
          35.6281
        ]
      },
      "properties": {
        "station_name": "品川",
        "line_name": "山手線",
        "operator_name": "JR東日本",
        "prefecture": "",
        "ridership": 548442,
        "year": 2023
      }
    },
    {
      "type": "Feature",
      "geometry": {
        "type": "Point",
        "coordinates": [
          139.6223,
          35.4664
        ]
      },
      "properties": {
        "station_name": "横浜",
        "line_name": "東横線",
        "operator_name": "東急電鉄",
        "prefecture": "",
        "ridership": 506105,
        "year": 2023
      }
    },
    {
      "type": "Feature",
      "geometry": {
        "type": "Point",
        "coordinates": [
          139.7112,
          35.7303
        ]
      },
      "properties": {
        "station_name": "池袋",
        "line_name": "丸ノ内線",
        "operator_name": "東京メトロ",
        "prefecture": "",
        "ridership": 500694,
        "year": 2023
      }
    },
    {
      "type": "Feature",
      "geometry": {
        "type": "Point",
        "coordinates": [
          139.6244,
          35.9057
        ]
      },
      "properties": {
        "station_name": "大宮",
        "line_name": "東北線",
        "operator_name": "JR東日本",
        "prefecture": "",
        "ridership": 488786,
        "year": 2023
      }
    },
    {
      "type": "Feature",
      "geometry": {
        "type": "Point",
        "coordinates": [
          139.7157,
          35.6325
        ]
      },
      "properties": {
        "station_name": "目黒",
        "line_name": "目黒線",
        "operator_name": "東急電鉄",
        "prefecture": "",
        "ridership": 455428,
        "year": 2023
      }
    },
    {
      "type": "Feature",
      "geometry": {
        "type": "Point",
        "coordinates": [
          139.6997,
          35.6912
        ]
      },
      "properties": {
        "station_name": "新宿",
        "line_name": "小田原線",
        "operator_name": "小田急電鉄",
        "prefecture": "",
        "ridership": 439840,
        "year": 2023
      }
    },
    {
      "type": "Feature",
      "geometry": {
        "type": "Point",
        "coordinates": [
          139.7587,
          35.6662
        ]
      },
      "properties": {
        "station_name": "新橋",
        "line_name": "東海道線",
        "operator_name": "JR東日本",
        "prefecture": "",
        "ridership": 438226,
        "year": 2023
      }
    },
    {
      "type": "Feature",
      "geometry": {
        "type": "Point",
        "coordinates": [
          139.7732,
          35.6983
        ]
      },
      "properties": {
        "station_name": "秋葉原",
        "line_name": "総武線",
        "operator_name": "JR東日本",
        "prefecture": "",
        "ridership": 423996,
        "year": 2023
      }
    },
    {
      "type": "Feature",
      "geometry": {
        "type": "Point",
        "coordinates": [
          139.7108,
          35.7277
        ]
      },
      "properties": {
        "station_name": "池袋",
        "line_name": "池袋線",
        "operator_name": "西武鉄道",
        "prefecture": "",
        "ridership": 419228,
        "year": 2023
      }
    },
    {
      "type": "Feature",
      "geometry": {
        "type": "Point",
        "coordinates": [
          135.4977,
          34.7031
        ]
      },
      "properties": {
        "station_name": "梅田",
        "line_name": "(御堂筋線)",
        "operator_name": "大阪市高速電気軌道",
        "prefecture": "",
        "ridership": 414792,
        "year": 2023
      }
    },
    {
      "type": "Feature",
      "geometry": {
        "type": "Point",
        "coordinates": [
          139.7112,
          35.7312
        ]
      },
      "properties": {
        "station_name": "池袋",
        "line_name": "東上本線",
        "operator_name": "東武鉄道",
        "prefecture": "",
        "ridership": 408382,
        "year": 2023
      }
    },
    {
      "type": "Feature",
      "geometry": {
        "type": "Point",
        "coordinates": [
          135.4983,
          34.7056
        ]
      },
      "properties": {
        "station_name": "大阪梅田",
        "line_name": "神戸線",
        "operator_name": "阪急電鉄",
        "prefecture": "",
        "ridership": 402947,
        "year": 2023
      }
    },
    {
      "type": "Feature",
      "geometry": {
        "type": "Point",
        "coordinates": [
          139.8056,
          35.7498
        ]
      },
      "properties": {
        "station_name": "北千住",
        "line_name": "伊勢崎線",
        "operator_name": "東武鉄道",
        "prefecture": "",
        "ridership": 401218,
        "year": 2023
      }
    },
    {
      "type": "Feature",
      "geometry": {
        "type": "Point",
        "coordinates": [
          136.8817,
          35.1714
        ]
      },
      "properties": {
        "station_name": "名古屋",
        "line_name": "東海道線",
        "operator_name": "JR東海",
        "prefecture": "",
        "ridership": 397411,
        "year": 2023
      }
    },
    {
      "type": "Feature",
      "geometry": {
        "type": "Point",
        "coordinates": [
          139.8046,
          35.7488
        ]
      },
      "properties": {
        "station_name": "北千住",
        "line_name": "常磐線",
        "operator_name": "JR東日本",
        "prefecture": "",
        "ridership": 387496,
        "year": 2023
      }
    },
    {
      "type": "Feature",
      "geometry": {
        "type": "Point",
        "coordinates": [
          139.6656,
          35.7057
        ]
      },
      "properties": {
        "station_name": "中野",
        "line_name": "中央線",
        "operator_name": "JR東日本",
        "prefecture": "",
        "ridership": 386657,
        "year": 2023
      }
    },
    {
      "type": "Feature",
      "geometry": {
        "type": "Point",
        "coordinates": [
          139.7282,
          35.6199
        ]
      },
      "properties": {
        "station_name": "大崎",
        "line_name": "山手線",
        "operator_name": "JR東日本",
        "prefecture": "",
        "ridership": 375884,
        "year": 2023
      }
    },
    {
      "type": "Feature",
      "geometry": {
        "type": "Point",
        "coordinates": [
          139.6968,
          35.5314
        ]
      },
      "properties": {
        "station_name": "川崎",
        "line_name": "南武線",
        "operator_name": "JR東日本",
        "prefecture": "",
        "ridership": 374620,
        "year": 2023
      }
    },
    {
      "type": "Feature",
      "geometry": {
        "type": "Point",
        "coordinates": [
          139.8249,
          35.7623
        ]
      },
      "properties": {
        "station_name": "綾瀬",
        "line_name": "千代田線",
        "operator_name": "東京メトロ",
        "prefecture": "",
        "ridership": 372622,
        "year": 2023
      }
    },
    {
      "type": "Feature",
      "geometry": {
        "type": "Point",
        "coordinates": [
          139.9588,
          35.7073
        ]
      },
      "properties": {
        "station_name": "西船橋",
        "line_name": "東西線",
        "operator_name": "東京メトロ",
        "prefecture": "",
        "ridership": 372090,
        "year": 2023
      }
    },
    {
      "type": "Feature",
      "geometry": {
        "type": "Point",
        "coordinates": [
          139.6989,
          35.6442
        ]
      },
      "properties": {
        "station_name": "中目黒",
        "line_name": "東横線",
        "operator_name": "東急電鉄",
        "prefecture": "",
        "ridership": 363724,
        "year": 2023
      }
    },
    {
      "type": "Feature",
      "geometry": {
        "type": "Point",
        "coordinates": [
          136.8837,
          35.1716
        ]
      },
      "properties": {
        "station_name": "名古屋",
        "line_name": "東山線",
        "operator_name": "名古屋市",
        "prefecture": "",
        "ridership": 359960,
        "year": 2023
      }
    },
    {
      "type": "Feature",
      "geometry": {
        "type": "Point",
        "coordinates": [
          139.704,
          35.7133
        ]
      },
      "properties": {
        "station_name": "高田馬場",
        "line_name": "山手線",
        "operator_name": "JR東日本",
        "prefecture": "",
        "ridership": 351420,
        "year": 2023
      }
    },
    {
      "type": "Feature",
      "geometry": {
        "type": "Point",
        "coordinates": [
          135.7586,
          34.9857
        ]
      },
      "properties": {
        "station_name": "京都",
        "line_name": "東海道線",
        "operator_name": "JR西日本",
        "prefecture": "",
        "ridership": 329424,
        "year": 2023
      }
    },
    {
      "type": "Feature",
      "geometry": {
        "type": "Point",
        "coordinates": [
          139.7762,
          35.7134
        ]
      },
      "properties": {
        "station_name": "上野",
        "line_name": "東北線",
        "operator_name": "JR東日本",
        "prefecture": "",
        "ridership": 325110,
        "year": 2023
      }
    },
    {
      "type": "Feature",
      "geometry": {
        "type": "Point",
        "coordinates": [
          139.6221,
          35.4658
        ]
      },
      "properties": {
        "station_name": "横浜",
        "line_name": "相鉄本線",
        "operator_name": "相模鉄道",
        "prefecture": "",
        "ridership": 314649,
        "year": 2023
      }
    },
    {
      "type": "Feature",
      "geometry": {
        "type": "Point",
        "coordinates": [
          139.7662,
          35.6868
        ]
      },
      "properties": {
        "station_name": "大手町",
        "line_name": "丸ノ内線",
        "operator_name": "東京メトロ",
        "prefecture": "",
        "ridership": 312041,
        "year": 2023
      }
    },
    {
      "type": "Feature",
      "geometry": {
        "type": "Point",
        "coordinates": [
          139.6795,
          35.7434
        ]
      },
      "properties": {
        "station_name": "小竹向原",
        "line_name": "有楽町線",
        "operator_name": "東京メトロ",
        "prefecture": "",
        "ridership": 301371,
        "year": 2023
      }
    },
    {
      "type": "Feature",
      "geometry": {
        "type": "Point",
        "coordinates": [
          139.4138,
          35.698
        ]
      },
      "properties": {
        "station_name": "立川",
        "line_name": "中央線",
        "operator_name": "JR東日本",
        "prefecture": "",
        "ridership": 301256,
        "year": 2023
      }
    },
    {
      "type": "Feature",
      "geometry": {
        "type": "Point",
        "coordinates": [
          139.6231,
          35.4663
        ]
      },
      "properties": {
        "station_name": "横浜",
        "line_name": "本線",
        "operator_name": "京浜急行電鉄",
        "prefecture": "",
        "ridership": 293173,
        "year": 2023
      }
    },
    {
      "type": "Feature",
      "geometry": {
        "type": "Point",
        "coordinates": [
          139.6999,
          35.6586
        ]
      },
      "properties": {
        "station_name": "渋谷",
        "line_name": "井の頭線",
        "operator_name": "京王電鉄",
        "prefecture": "",
        "ridership": 285759,
        "year": 2023
      }
    },
    {
      "type": "Feature",
      "geometry": {
        "type": "Point",
        "coordinates": [
          139.6105,
          35.5998
        ]
      },
      "properties": {
        "station_name": "溝の口",
        "line_name": "田園都市線",
        "operator_name": "東急電鉄",
        "prefecture": "",
        "ridership": 276715,
        "year": 2023
      }
    },
    {
      "type": "Feature",
      "geometry": {
        "type": "Point",
        "coordinates": [
          136.8839,
          35.1704
        ]
      },
      "properties": {
        "station_name": "名鉄名古屋",
        "line_name": "名古屋本線",
        "operator_name": "名古屋鉄道",
        "prefecture": "",
        "ridership": 272061,
        "year": 2023
      }
    },
    {
      "type": "Feature",
      "geometry": {
        "type": "Point",
        "coordinates": [
          139.647,
          35.554
        ]
      },
      "properties": {
        "station_name": "日吉",
        "line_name": "東横線",
        "operator_name": "東急電鉄",
        "prefecture": "",
        "ridership": 271898,
        "year": 2023
      }
    },
    {
      "type": "Feature",
      "geometry": {
        "type": "Point",
        "coordinates": [
          139.704,
          35.7125
        ]
      },
      "properties": {
        "station_name": "高田馬場",
        "line_name": "新宿線",
        "operator_name": "西武鉄道",
        "prefecture": "",
        "ridership": 264763,
        "year": 2023
      }
    },
    {
      "type": "Feature",
      "geometry": {
        "type": "Point",
        "coordinates": [
          135.5156,
          34.6466
        ]
      },
      "properties": {
        "station_name": "天王寺",
        "line_name": "関西線",
        "operator_name": "JR西日本",
        "prefecture": "",
        "ridership": 264102,
        "year": 2023
      }
    },
    {
      "type": "Feature",
      "geometry": {
        "type": "Point",
        "coordinates": [
          139.7513,
          35.6961
        ]
      },
      "properties": {
        "station_name": "九段下",
        "line_name": "東西線",
        "operator_name": "東京メトロ",
        "prefecture": "",
        "ridership": 258062,
        "year": 2023
      }
    },
    {
      "type": "Feature",
      "geometry": {
        "type": "Point",
        "coordinates": [
          139.6796,
          35.6689
        ]
      },
      "properties": {
        "station_name": "代々木上原",
        "line_name": "小田原線",
        "operator_name": "小田急電鉄",
        "prefecture": "",
        "ridership": 257017,
        "year": 2023
      }
    },
    {
      "type": "Feature",
      "geometry": {
        "type": "Point",
        "coordinates": [
          139.445,
          35.5438
        ]
      },
      "properties": {
        "station_name": "町田",
        "line_name": "小田原線",
        "operator_name": "小田急電鉄",
        "prefecture": "",
        "ridership": 254478,
        "year": 2023
      }
    },
    {
      "type": "Feature",
      "geometry": {
        "type": "Point",
        "coordinates": [
          139.7571,
          35.6554
        ]
      },
      "properties": {
        "station_name": "浜松町",
        "line_name": "東海道線",
        "operator_name": "JR東日本",
        "prefecture": "",
        "ridership": 253334,
        "year": 2023
      }
    },
    {
      "type": "Feature",
      "geometry": {
        "type": "Point",
        "coordinates": [
          139.9595,
          35.7073
        ]
      },
      "properties": {
        "station_name": "西船橋",
        "line_name": "総武線",
        "operator_name": "JR東日本",
        "prefecture": "",
        "ridership": 251910,
        "year": 2023
      }
    },
    {
      "type": "Feature",
      "geometry": {
        "type": "Point",
        "coordinates": [
          139.9841,
          35.7018
        ]
      },
      "properties": {
        "station_name": "船橋",
        "line_name": "総武線",
        "operator_name": "JR東日本",
        "prefecture": "",
        "ridership": 251068,
        "year": 2023
      }
    },
    {
      "type": "Feature",
      "geometry": {
        "type": "Point",
        "coordinates": [
          139.7633,
          35.675
        ]
      },
      "properties": {
        "station_name": "有楽町",
        "line_name": "東海道線",
        "operator_name": "JR東日本",
        "prefecture": "",
        "ridership": 251064,
        "year": 2023
      }
    },
    {
      "type": "Feature",
      "geometry": {
        "type": "Point",
        "coordinates": [
          139.58,
          35.7031
        ]
      },
      "properties": {
        "station_name": "吉祥寺",
        "line_name": "中央線",
        "operator_name": "JR東日本",
        "prefecture": "",
        "ridership": 250254,
        "year": 2023
      }
    },
    {
      "type": "Feature",
      "geometry": {
        "type": "Point",
        "coordinates": [
          139.716,
          35.5625
        ]
      },
      "properties": {
        "station_name": "蒲田",
        "line_name": "東海道線",
        "operator_name": "JR東日本",
        "prefecture": "",
        "ridership": 242214,
        "year": 2023
      }
    },
    {
      "type": "Feature",
      "geometry": {
        "type": "Point",
        "coordinates": [
          139.7101,
          35.6467
        ]
      },
      "properties": {
        "station_name": "恵比寿",
        "line_name": "山手線",
        "operator_name": "JR東日本",
        "prefecture": "",
        "ridership": 242206,
        "year": 2023
      }
    },
    {
      "type": "Feature",
      "geometry": {
        "type": "Point",
        "coordinates": [
          130.4206,
          33.59
        ]
      },
      "properties": {
        "station_name": "博多",
        "line_name": "鹿児島線",
        "operator_name": "JR九州",
        "prefecture": "",
        "ridership": 239124,
        "year": 2023
      }
    },
    {
      "type": "Feature",
      "geometry": {
        "type": "Point",
        "coordinates": [
          139.7476,
          35.6457
        ]
      },
      "properties": {
        "station_name": "田町",
        "line_name": "東海道線",
        "operator_name": "JR東日本",
        "prefecture": "",
        "ridership": 238712,
        "year": 2023
      }
    },
    {
      "type": "Feature",
      "geometry": {
        "type": "Point",
        "coordinates": [
          135.5145,
          34.6463
        ]
      },
      "properties": {
        "station_name": "天王寺",
        "line_name": "(御堂筋線)",
        "operator_name": "大阪市高速電気軌道",
        "prefecture": "",
        "ridership": 238194,
        "year": 2023
      }
    },
    {
      "type": "Feature",
      "geometry": {
        "type": "Point",
        "coordinates": [
          139.7381,
          35.6277
        ]
      },
      "properties": {
        "station_name": "品川",
        "line_name": "本線",
        "operator_name": "京浜急行電鉄",
        "prefecture": "",
        "ridership": 233916,
        "year": 2023
      }
    },
    {
      "type": "Feature",
      "geometry": {
        "type": "Point",
        "coordinates": [
          135.5002,
          34.6659
        ]
      },
      "properties": {
        "station_name": "難波",
        "line_name": "(御堂筋線)",
        "operator_name": "大阪市高速電気軌道",
        "prefecture": "",
        "ridership": 233520,
        "year": 2023
      }
    },
    {
      "type": "Feature",
      "geometry": {
        "type": "Point",
        "coordinates": [
          139.8044,
          35.7491
        ]
      },
      "properties": {
        "station_name": "北千住",
        "line_name": "千代田線",
        "operator_name": "東京メトロ",
        "prefecture": "",
        "ridership": 232109,
        "year": 2023
      }
    },
    {
      "type": "Feature",
      "geometry": {
        "type": "Point",
        "coordinates": [
          135.195,
          34.6948
        ]
      },
      "properties": {
        "station_name": "三ノ宮",
        "line_name": "東海道線",
        "operator_name": "JR西日本",
        "prefecture": "",
        "ridership": 231870,
        "year": 2023
      }
    },
    {
      "type": "Feature",
      "geometry": {
        "type": "Point",
        "coordinates": [
          135.534,
          34.6966
        ]
      },
      "properties": {
        "station_name": "京橋",
        "line_name": "大阪環状線",
        "operator_name": "JR西日本",
        "prefecture": "",
        "ridership": 228988,
        "year": 2023
      }
    },
    {
      "type": "Feature",
      "geometry": {
        "type": "Point",
        "coordinates": [
          139.971,
          35.8622
        ]
      },
      "properties": {
        "station_name": "柏",
        "line_name": "常磐線",
        "operator_name": "JR東日本",
        "prefecture": "",
        "ridership": 228204,
        "year": 2023
      }
    },
    {
      "type": "Feature",
      "geometry": {
        "type": "Point",
        "coordinates": [
          135.5023,
          34.6631
        ]
      },
      "properties": {
        "station_name": "難波",
        "line_name": "南海本線",
        "operator_name": "南海電気鉄道",
        "prefecture": "",
        "ridership": 217969,
        "year": 2023
      }
    },
    {
      "type": "Feature",
      "geometry": {
        "type": "Point",
        "coordinates": [
          139.764,
          35.672
        ]
      },
      "properties": {
        "station_name": "銀座",
        "line_name": "日比谷線",
        "operator_name": "東京メトロ",
        "prefecture": "",
        "ridership": 217244,
        "year": 2023
      }
    },
    {
      "type": "Feature",
      "geometry": {
        "type": "Point",
        "coordinates": [
          139.7237,
          35.6261
        ]
      },
      "properties": {
        "station_name": "五反田",
        "line_name": "山手線",
        "operator_name": "JR東日本",
        "prefecture": "",
        "ridership": 215278,
        "year": 2023
      }
    },
    {
      "type": "Feature",
      "geometry": {
        "type": "Point",
        "coordinates": [
          139.6598,
          35.5766
        ]
      },
      "properties": {
        "station_name": "武蔵小杉",
        "line_name": "南武線",
        "operator_name": "JR東日本",
        "prefecture": "",
        "ridership": 215118,
        "year": 2023
      }
    },
    {
      "type": "Feature",
      "geometry": {
        "type": "Point",
        "coordinates": [
          139.8124,
          35.7102
        ]
      },
      "properties": {
        "station_name": "押上",
        "line_name": "押上線",
        "operator_name": "京成電鉄",
        "prefecture": "",
        "ridership": 209421,
        "year": 2023
      }
    },
    {
      "type": "Feature",
      "geometry": {
        "type": "Point",
        "coordinates": [
          139.7712,
          35.728
        ]
      },
      "properties": {
        "station_name": "日暮里",
        "line_name": "常磐線",
        "operator_name": "JR東日本",
        "prefecture": "",
        "ridership": 204286,
        "year": 2023
      }
    },
    {
      "type": "Feature",
      "geometry": {
        "type": "Point",
        "coordinates": [
          139.796,
          35.6551
        ]
      },
      "properties": {
        "station_name": "豊洲",
        "line_name": "有楽町線",
        "operator_name": "東京メトロ",
        "prefecture": "",
        "ridership": 202030,
        "year": 2023
      }
    },
    {
      "type": "Feature",
      "geometry": {
        "type": "Point",
        "coordinates": [
          140.1135,
          35.6136
        ]
      },
      "properties": {
        "station_name": "千葉",
        "line_name": "総武線",
        "operator_name": "JR東日本",
        "prefecture": "",
        "ridership": 201050,
        "year": 2023
      }
    },
    {
      "type": "Feature",
      "geometry": {
        "type": "Point",
        "coordinates": [
          135.5007,
          34.6836
        ]
      },
      "properties": {
        "station_name": "本町",
        "line_name": "(御堂筋線)",
        "operator_name": "大阪市高速電気軌道",
        "prefecture": "",
        "ridership": 200963,
        "year": 2023
      }
    },
    {
      "type": "Feature",
      "geometry": {
        "type": "Point",
        "coordinates": [
          139.4867,
          35.3388
        ]
      },
      "properties": {
        "station_name": "藤沢",
        "line_name": "東海道線",
        "operator_name": "JR東日本",
        "prefecture": "",
        "ridership": 200928,
        "year": 2023
      }
    },
    {
      "type": "Feature",
      "geometry": {
        "type": "Point",
        "coordinates": [
          135.5009,
          34.6913
        ]
      },
      "properties": {
        "station_name": "淀屋橋",
        "line_name": "(御堂筋線)",
        "operator_name": "大阪市高速電気軌道",
        "prefecture": "",
        "ridership": 199417,
        "year": 2023
      }
    },
    {
      "type": "Feature",
      "geometry": {
        "type": "Point",
        "coordinates": [
          139.4806,
          35.7001
        ]
      },
      "properties": {
        "station_name": "国分寺",
        "line_name": "中央線",
        "operator_name": "JR東日本",
        "prefecture": "",
        "ridership": 197982,
        "year": 2023
      }
    },
    {
      "type": "Feature",
      "geometry": {
        "type": "Point",
        "coordinates": [
          139.4466,
          35.5415
        ]
      },
      "properties": {
        "station_name": "町田",
        "line_name": "横浜線",
        "operator_name": "JR東日本",
        "prefecture": "",
        "ridership": 196614,
        "year": 2023
      }
    },
    {
      "type": "Feature",
      "geometry": {
        "type": "Point",
        "coordinates": [
          139.5344,
          35.4001
        ]
      },
      "properties": {
        "station_name": "戸塚",
        "line_name": "東海道線",
        "operator_name": "JR東日本",
        "prefecture": "",
        "ridership": 196090,
        "year": 2023
      }
    },
    {
      "type": "Feature",
      "geometry": {
        "type": "Point",
        "coordinates": [
          136.9086,
          35.17
        ]
      },
      "properties": {
        "station_name": "栄",
        "line_name": "東山線",
        "operator_name": "名古屋市",
        "prefecture": "",
        "ridership": 196034,
        "year": 2023
      }
    },
    {
      "type": "Feature",
      "geometry": {
        "type": "Point",
        "coordinates": [
          139.6597,
          35.5759
        ]
      },
      "properties": {
        "station_name": "武蔵小杉",
        "line_name": "東横線",
        "operator_name": "東急電鉄",
        "prefecture": "",
        "ridership": 195349,
        "year": 2023
      }
    },
    {
      "type": "Feature",
      "geometry": {
        "type": "Point",
        "coordinates": [
          139.7397,
          35.6381
        ]
      },
      "properties": {
        "station_name": "泉岳寺",
        "line_name": "浅草線",
        "operator_name": "東京都",
        "prefecture": "",
        "ridership": 195118,
        "year": 2023
      }
    },
    {
      "type": "Feature",
      "geometry": {
        "type": "Point",
        "coordinates": [
          139.7582,
          35.6675
        ]
      },
      "properties": {
        "station_name": "新橋",
        "line_name": "銀座線",
        "operator_name": "東京メトロ",
        "prefecture": "",
        "ridership": 194374,
        "year": 2023
      }
    },
    {
      "type": "Feature",
      "geometry": {
        "type": "Point",
        "coordinates": [
          139.7006,
          35.6924
        ]
      },
      "properties": {
        "station_name": "新宿",
        "line_name": "丸ノ内線",
        "operator_name": "東京メトロ",
        "prefecture": "",
        "ridership": 193170,
        "year": 2023
      }
    },
    {
      "type": "Feature",
      "geometry": {
        "type": "Point",
        "coordinates": [
          139.8146,
          35.6967
        ]
      },
      "properties": {
        "station_name": "錦糸町",
        "line_name": "総武線",
        "operator_name": "JR東日本",
        "prefecture": "",
        "ridership": 187830,
        "year": 2023
      }
    },
    {
      "type": "Feature",
      "geometry": {
        "type": "Point",
        "coordinates": [
          139.6712,
          35.6433
        ]
      },
      "properties": {
        "station_name": "三軒茶屋",
        "line_name": "田園都市線",
        "operator_name": "東急電鉄",
        "prefecture": "",
        "ridership": 186743,
        "year": 2023
      }
    },
    {
      "type": "Feature",
      "geometry": {
        "type": "Point",
        "coordinates": [
          130.4207,
          33.5901
        ]
      },
      "properties": {
        "station_name": "博多",
        "line_name": "(空港線)",
        "operator_name": "福岡市",
        "prefecture": "",
        "ridership": 186439,
        "year": 2023
      }
    },
    {
      "type": "Feature",
      "geometry": {
        "type": "Point",
        "coordinates": [
          139.7648,
          35.6819
        ]
      },
      "properties": {
        "station_name": "東京",
        "line_name": "丸ノ内線",
        "operator_name": "東京メトロ",
        "prefecture": "",
        "ridership": 186253,
        "year": 2023
      }
    },
    {
      "type": "Feature",
      "geometry": {
        "type": "Point",
        "coordinates": [
          139.7213,
          35.7775
        ]
      },
      "properties": {
        "station_name": "赤羽",
        "line_name": "東北線",
        "operator_name": "JR東日本",
        "prefecture": "",
        "ridership": 183284,
        "year": 2023
      }
    },
    {
      "type": "Feature",
      "geometry": {
        "type": "Point",
        "coordinates": [
          139.7679,
          35.6811
        ]
      },
      "properties": {
        "station_name": "東京",
        "line_name": "東海道新幹線",
        "operator_name": "JR東海",
        "prefecture": "",
        "ridership": 182987,
        "year": 2023
      }
    },
    {
      "type": "Feature",
      "geometry": {
        "type": "Point",
        "coordinates": [
          139.7157,
          35.6334
        ]
      },
      "properties": {
        "station_name": "目黒",
        "line_name": "山手線",
        "operator_name": "JR東日本",
        "prefecture": "",
        "ridership": 181204,
        "year": 2023
      }
    },
    {
      "type": "Feature",
      "geometry": {
        "type": "Point",
        "coordinates": [
          139.777,
          35.7115
        ]
      },
      "properties": {
        "station_name": "上野",
        "line_name": "日比谷線",
        "operator_name": "東京メトロ",
        "prefecture": "",
        "ridership": 180282,
        "year": 2023
      }
    },
    {
      "type": "Feature",
      "geometry": {
        "type": "Point",
        "coordinates": [
          139.7027,
          35.6591
        ]
      },
      "properties": {
        "station_name": "渋谷",
        "line_name": "銀座線",
        "operator_name": "東京メトロ",
        "prefecture": "",
        "ridership": 179645,
        "year": 2023
      }
    },
    {
      "type": "Feature",
      "geometry": {
        "type": "Point",
        "coordinates": [
          140.8825,
          38.2601
        ]
      },
      "properties": {
        "station_name": "仙台",
        "line_name": "東北線",
        "operator_name": "JR東日本",
        "prefecture": "",
        "ridership": 178924,
        "year": 2023
      }
    },
    {
      "type": "Feature",
      "geometry": {
        "type": "Point",
        "coordinates": [
          139.5312,
          35.3541
        ]
      },
      "properties": {
        "station_name": "大船",
        "line_name": "東海道線",
        "operator_name": "JR東日本",
        "prefecture": "",
        "ridership": 177992,
        "year": 2023
      }
    },
    {
      "type": "Feature",
      "geometry": {
        "type": "Point",
        "coordinates": [
          139.6571,
          35.8586
        ]
      },
      "properties": {
        "station_name": "浦和",
        "line_name": "東北線",
        "operator_name": "JR東日本",
        "prefecture": "",
        "ridership": 176426,
        "year": 2023
      }
    },
    {
      "type": "Feature",
      "geometry": {
        "type": "Point",
        "coordinates": [
          139.9008,
          35.7847
        ]
      },
      "properties": {
        "station_name": "松戸",
        "line_name": "常磐線",
        "operator_name": "JR東日本",
        "prefecture": "",
        "ridership": 176400,
        "year": 2023
      }
    },
    {
      "type": "Feature",
      "geometry": {
        "type": "Point",
        "coordinates": [
          139.7667,
          35.7322
        ]
      },
      "properties": {
        "station_name": "西日暮里",
        "line_name": "東北線",
        "operator_name": "JR東日本",
        "prefecture": "",
        "ridership": 176278,
        "year": 2023
      }
    },
    {
      "type": "Feature",
      "geometry": {
        "type": "Point",
        "coordinates": [
          139.7709,
          35.6918
        ]
      },
      "properties": {
        "station_name": "神田",
        "line_name": "中央線",
        "operator_name": "JR東日本",
        "prefecture": "",
        "ridership": 175758,
        "year": 2023
      }
    },
    {
      "type": "Feature",
      "geometry": {
        "type": "Point",
        "coordinates": [
          140.0203,
          35.6913
        ]
      },
      "properties": {
        "station_name": "津田沼",
        "line_name": "総武線",
        "operator_name": "JR東日本",
        "prefecture": "",
        "ridership": 175640,
        "year": 2023
      }
    },
    {
      "type": "Feature",
      "geometry": {
        "type": "Point",
        "coordinates": [
          139.8137,
          35.7087
        ]
      },
      "properties": {
        "station_name": "押上",
        "line_name": "半蔵門線",
        "operator_name": "東京メトロ",
        "prefecture": "",
        "ridership": 174863,
        "year": 2023
      }
    },
    {
      "type": "Feature",
      "geometry": {
        "type": "Point",
        "coordinates": [
          139.8137,
          35.7087
        ]
      },
      "properties": {
        "station_name": "押上",
        "line_name": "伊勢崎線",
        "operator_name": "東武鉄道",
        "prefecture": "",
        "ridership": 174863,
        "year": 2023
      }
    },
    {
      "type": "Feature",
      "geometry": {
        "type": "Point",
        "coordinates": [
          135.5303,
          34.6655
        ]
      },
      "properties": {
        "station_name": "鶴橋",
        "line_name": "大阪環状線",
        "operator_name": "JR西日本",
        "prefecture": "",
        "ridership": 173380,
        "year": 2023
      }
    },
    {
      "type": "Feature",
      "geometry": {
        "type": "Point",
        "coordinates": [
          139.765,
          35.6996
        ]
      },
      "properties": {
        "station_name": "御茶ノ水",
        "line_name": "中央線",
        "operator_name": "JR東日本",
        "prefecture": "",
        "ridership": 171914,
        "year": 2023
      }
    },
    {
      "type": "Feature",
      "geometry": {
        "type": "Point",
        "coordinates": [
          139.7306,
          35.6857
        ]
      },
      "properties": {
        "station_name": "四ツ谷",
        "line_name": "中央線",
        "operator_name": "JR東日本",
        "prefecture": "",
        "ridership": 171852,
        "year": 2023
      }
    },
    {
      "type": "Feature",
      "geometry": {
        "type": "Point",
        "coordinates": [
          139.7125,
          35.6651
        ]
      },
      "properties": {
        "station_name": "表参道",
        "line_name": "銀座線",
        "operator_name": "東京メトロ",
        "prefecture": "",
        "ridership": 168791,
        "year": 2023
      }
    },
    {
      "type": "Feature",
      "geometry": {
        "type": "Point",
        "coordinates": [
          139.735,
          35.6071
        ]
      },
      "properties": {
        "station_name": "大井町",
        "line_name": "東海道線",
        "operator_name": "JR東日本",
        "prefecture": "",
        "ridership": 168378,
        "year": 2023
      }
    },
    {
      "type": "Feature",
      "geometry": {
        "type": "Point",
        "coordinates": [
          141.35,
          43.0684
        ]
      },
      "properties": {
        "station_name": "札幌",
        "line_name": "函館線",
        "operator_name": "JR北海道",
        "prefecture": "",
        "ridership": 168030,
        "year": 2023
      }
    },
    {
      "type": "Feature",
      "geometry": {
        "type": "Point",
        "coordinates": [
          139.5607,
          35.7027
        ]
      },
      "properties": {
        "station_name": "三鷹",
        "line_name": "中央線",
        "operator_name": "JR東日本",
        "prefecture": "",
        "ridership": 167532,
        "year": 2023
      }
    },
    {
      "type": "Feature",
      "geometry": {
        "type": "Point",
        "coordinates": [
          139.705,
          35.7133
        ]
      },
      "properties": {
        "station_name": "高田馬場",
        "line_name": "東西線",
        "operator_name": "東京メトロ",
        "prefecture": "",
        "ridership": 167360,
        "year": 2023
      }
    },
    {
      "type": "Feature",
      "geometry": {
        "type": "Point",
        "coordinates": [
          139.774,
          35.6824
        ]
      },
      "properties": {
        "station_name": "日本橋",
        "line_name": "東西線",
        "operator_name": "東京メトロ",
        "prefecture": "",
        "ridership": 163127,
        "year": 2023
      }
    },
    {
      "type": "Feature",
      "geometry": {
        "type": "Point",
        "coordinates": [
          136.9013,
          35.1429
        ]
      },
      "properties": {
        "station_name": "金山",
        "line_name": "名古屋本線",
        "operator_name": "名古屋鉄道",
        "prefecture": "",
        "ridership": 162483,
        "year": 2023
      }
    },
    {
      "type": "Feature",
      "geometry": {
        "type": "Point",
        "coordinates": [
          139.6129,
          35.7884
        ]
      },
      "properties": {
        "station_name": "和光市",
        "line_name": "東上本線",
        "operator_name": "東武鉄道",
        "prefecture": "",
        "ridership": 162203,
        "year": 2023
      }
    },
    {
      "type": "Feature",
      "geometry": {
        "type": "Point",
        "coordinates": [
          135.4998,
          34.7006
        ]
      },
      "properties": {
        "station_name": "東梅田",
        "line_name": "(谷町線)",
        "operator_name": "大阪市高速電気軌道",
        "prefecture": "",
        "ridership": 160997,
        "year": 2023
      }
    },
    {
      "type": "Feature",
      "geometry": {
        "type": "Point",
        "coordinates": [
          139.6202,
          35.7044
        ]
      },
      "properties": {
        "station_name": "荻窪",
        "line_name": "中央線",
        "operator_name": "JR東日本",
        "prefecture": "",
        "ridership": 160004,
        "year": 2023
      }
    },
    {
      "type": "Feature",
      "geometry": {
        "type": "Point",
        "coordinates": [
          135.4973,
          34.7015
        ]
      },
      "properties": {
        "station_name": "大阪梅田",
        "line_name": "本線",
        "operator_name": "阪神電気鉄道",
        "prefecture": "",
        "ridership": 159663,
        "year": 2023
      }
    },
    {
      "type": "Feature",
      "geometry": {
        "type": "Point",
        "coordinates": [
          135.5,
          34.7337
        ]
      },
      "properties": {
        "station_name": "新大阪",
        "line_name": "東海道新幹線",
        "operator_name": "JR東海",
        "prefecture": "",
        "ridership": 158539,
        "year": 2023
      }
    },
    {
      "type": "Feature",
      "geometry": {
        "type": "Point",
        "coordinates": [
          141.3521,
          43.06
        ]
      },
      "properties": {
        "station_name": "大通",
        "line_name": "南北線",
        "operator_name": "札幌市",
        "prefecture": "",
        "ridership": 158272,
        "year": 2023
      }
    },
    {
      "type": "Feature",
      "geometry": {
        "type": "Point",
        "coordinates": [
          140.8799,
          38.2597
        ]
      },
      "properties": {
        "station_name": "仙台",
        "line_name": "南北線",
        "operator_name": "仙台市",
        "prefecture": "",
        "ridership": 157188,
        "year": 2023
      }
    },
    {
      "type": "Feature",
      "geometry": {
        "type": "Point",
        "coordinates": [
          139.7146,
          35.5618
        ]
      },
      "properties": {
        "station_name": "蒲田",
        "line_name": "池上線",
        "operator_name": "東急電鉄",
        "prefecture": "",
        "ridership": 156965,
        "year": 2023
      }
    },
    {
      "type": "Feature",
      "geometry": {
        "type": "Point",
        "coordinates": [
          139.4871,
          35.3386
        ]
      },
      "properties": {
        "station_name": "藤沢",
        "line_name": "江ノ島線",
        "operator_name": "小田急電鉄",
        "prefecture": "",
        "ridership": 156546,
        "year": 2023
      }
    },
    {
      "type": "Feature",
      "geometry": {
        "type": "Point",
        "coordinates": [
          139.7281,
          35.5889
        ]
      },
      "properties": {
        "station_name": "大森",
        "line_name": "東海道線",
        "operator_name": "JR東日本",
        "prefecture": "",
        "ridership": 156466,
        "year": 2023
      }
    },
    {
      "type": "Feature",
      "geometry": {
        "type": "Point",
        "coordinates": [
          141.3507,
          43.0659
        ]
      },
      "properties": {
        "station_name": "さっぽろ",
        "line_name": "南北線",
        "operator_name": "札幌市",
        "prefecture": "",
        "ridership": 156310,
        "year": 2023
      }
    },
    {
      "type": "Feature",
      "geometry": {
        "type": "Point",
        "coordinates": [
          139.5694,
          35.6209
        ]
      },
      "properties": {
        "station_name": "登戸",
        "line_name": "小田原線",
        "operator_name": "小田急電鉄",
        "prefecture": "",
        "ridership": 155310,
        "year": 2023
      }
    },
    {
      "type": "Feature",
      "geometry": {
        "type": "Point",
        "coordinates": [
          139.8837,
          35.6362
        ]
      },
      "properties": {
        "station_name": "舞浜",
        "line_name": "京葉線",
        "operator_name": "JR東日本",
        "prefecture": "",
        "ridership": 152312,
        "year": 2023
      }
    },
    {
      "type": "Feature",
      "geometry": {
        "type": "Point",
        "coordinates": [
          139.6114,
          35.5988
        ]
      },
      "properties": {
        "station_name": "武蔵溝ノ口",
        "line_name": "南武線",
        "operator_name": "JR東日本",
        "prefecture": "",
        "ridership": 151766,
        "year": 2023
      }
    },
    {
      "type": "Feature",
      "geometry": {
        "type": "Point",
        "coordinates": [
          136.9019,
          35.1439
        ]
      },
      "properties": {
        "station_name": "金山",
        "line_name": "名城線",
        "operator_name": "名古屋市",
        "prefecture": "",
        "ridership": 151460,
        "year": 2023
      }
    },
    {
      "type": "Feature",
      "geometry": {
        "type": "Point",
        "coordinates": [
          139.767,
          35.7324
        ]
      },
      "properties": {
        "station_name": "西日暮里",
        "line_name": "千代田線",
        "operator_name": "東京メトロ",
        "prefecture": "",
        "ridership": 151039,
        "year": 2023
      }
    },
    {
      "type": "Feature",
      "geometry": {
        "type": "Point",
        "coordinates": [
          139.3389,
          35.6555
        ]
      },
      "properties": {
        "station_name": "八王子",
        "line_name": "中央線",
        "operator_name": "JR東日本",
        "prefecture": "",
        "ridership": 151038,
        "year": 2023
      }
    },
    {
      "type": "Feature",
      "geometry": {
        "type": "Point",
        "coordinates": [
          139.7467,
          35.7013
        ]
      },
      "properties": {
        "station_name": "飯田橋",
        "line_name": "東西線",
        "operator_name": "東京メトロ",
        "prefecture": "",
        "ridership": 150786,
        "year": 2023
      }
    },
    {
      "type": "Feature",
      "geometry": {
        "type": "Point",
        "coordinates": [
          135.499,
          34.6671
        ]
      },
      "properties": {
        "station_name": "大阪難波",
        "line_name": "難波線",
        "operator_name": "近畿日本鉄道",
        "prefecture": "",
        "ridership": 149261,
        "year": 2023
      }
    },
    {
      "type": "Feature",
      "geometry": {
        "type": "Point",
        "coordinates": [
          139.5702,
          35.6207
        ]
      },
      "properties": {
        "station_name": "登戸",
        "line_name": "南武線",
        "operator_name": "JR東日本",
        "prefecture": "",
        "ridership": 149082,
        "year": 2023
      }
    },
    {
      "type": "Feature",
      "geometry": {
        "type": "Point",
        "coordinates": [
          139.5873,
          35.8143
        ]
      },
      "properties": {
        "station_name": "朝霞台",
        "line_name": "東上本線",
        "operator_name": "東武鉄道",
        "prefecture": "",
        "ridership": 148983,
        "year": 2023
      }
    },
    {
      "type": "Feature",
      "geometry": {
        "type": "Point",
        "coordinates": [
          139.7175,
          35.8018
        ]
      },
      "properties": {
        "station_name": "川口",
        "line_name": "東北線",
        "operator_name": "JR東日本",
        "prefecture": "",
        "ridership": 148002,
        "year": 2023
      }
    },
    {
      "type": "Feature",
      "geometry": {
        "type": "Point",
        "coordinates": [
          139.7001,
          35.6961
        ]
      },
      "properties": {
        "station_name": "西武新宿",
        "line_name": "新宿線",
        "operator_name": "西武鉄道",
        "prefecture": "",
        "ridership": 143181,
        "year": 2023
      }
    },
    {
      "type": "Feature",
      "geometry": {
        "type": "Point",
        "coordinates": [
          139.7042,
          35.6912
        ]
      },
      "properties": {
        "station_name": "新宿三丁目",
        "line_name": "丸ノ内線",
        "operator_name": "東京メトロ",
        "prefecture": "",
        "ridership": 142867,
        "year": 2023
      }
    },
    {
      "type": "Feature",
      "geometry": {
        "type": "Point",
        "coordinates": [
          139.8577,
          35.7168
        ]
      },
      "properties": {
        "station_name": "新小岩",
        "line_name": "総武線",
        "operator_name": "JR東日本",
        "prefecture": "",
        "ridership": 141472,
        "year": 2023
      }
    },
    {
      "type": "Feature",
      "geometry": {
        "type": "Point",
        "coordinates": [
          139.6309,
          35.4511
        ]
      },
      "properties": {
        "station_name": "桜木町",
        "line_name": "根岸線",
        "operator_name": "JR東日本",
        "prefecture": "",
        "ridership": 141322,
        "year": 2023
      }
    },
    {
      "type": "Feature",
      "geometry": {
        "type": "Point",
        "coordinates": [
          132.4757,
          34.3972
        ]
      },
      "properties": {
        "station_name": "広島",
        "line_name": "山陽線",
        "operator_name": "JR西日本",
        "prefecture": "",
        "ridership": 141126,
        "year": 2023
      }
    },
    {
      "type": "Feature",
      "geometry": {
        "type": "Point",
        "coordinates": [
          139.9705,
          35.862
        ]
      },
      "properties": {
        "station_name": "柏",
        "line_name": "野田線",
        "operator_name": "東武鉄道",
        "prefecture": "",
        "ridership": 141087,
        "year": 2023
      }
    },
    {
      "type": "Feature",
      "geometry": {
        "type": "Point",
        "coordinates": [
          139.7914,
          35.876
        ]
      },
      "properties": {
        "station_name": "南越谷",
        "line_name": "武蔵野線",
        "operator_name": "JR東日本",
        "prefecture": "",
        "ridership": 140246,
        "year": 2023
      }
    },
    {
      "type": "Feature",
      "geometry": {
        "type": "Point",
        "coordinates": [
          135.5145,
          34.6456
        ]
      },
      "properties": {
        "station_name": "大阪阿部野橋",
        "line_name": "南大阪線",
        "operator_name": "近畿日本鉄道",
        "prefecture": "",
        "ridership": 140110,
        "year": 2023
      }
    },
    {
      "type": "Feature",
      "geometry": {
        "type": "Point",
        "coordinates": [
          135.4985,
          34.7328
        ]
      },
      "properties": {
        "station_name": "新大阪",
        "line_name": "(御堂筋線)",
        "operator_name": "大阪市高速電気軌道",
        "prefecture": "",
        "ridership": 139897,
        "year": 2023
      }
    },
    {
      "type": "Feature",
      "geometry": {
        "type": "Point",
        "coordinates": [
          139.6758,
          35.5079
        ]
      },
      "properties": {
        "station_name": "鶴見",
        "line_name": "鶴見線",
        "operator_name": "JR東日本",
        "prefecture": "",
        "ridership": 139336,
        "year": 2023
      }
    },
    {
      "type": "Feature",
      "geometry": {
        "type": "Point",
        "coordinates": [
          139.7898,
          35.8756
        ]
      },
      "properties": {
        "station_name": "新越谷",
        "line_name": "伊勢崎線",
        "operator_name": "東武鉄道",
        "prefecture": "",
        "ridership": 139076,
        "year": 2023
      }
    },
    {
      "type": "Feature",
      "geometry": {
        "type": "Point",
        "coordinates": [
          139.6265,
          35.6115
        ]
      },
      "properties": {
        "station_name": "二子玉川",
        "line_name": "田園都市線",
        "operator_name": "東急電鉄",
        "prefecture": "",
        "ridership": 138041,
        "year": 2023
      }
    },
    {
      "type": "Feature",
      "geometry": {
        "type": "Point",
        "coordinates": [
          135.502,
          34.7339
        ]
      },
      "properties": {
        "station_name": "新大阪",
        "line_name": "東海道線",
        "operator_name": "JR西日本",
        "prefecture": "",
        "ridership": 137990,
        "year": 2023
      }
    },
    {
      "type": "Feature",
      "geometry": {
        "type": "Point",
        "coordinates": [
          135.5003,
          34.6744
        ]
      },
      "properties": {
        "station_name": "心斎橋",
        "line_name": "(御堂筋線)",
        "operator_name": "大阪市高速電気軌道",
        "prefecture": "",
        "ridership": 137523,
        "year": 2023
      }
    },
    {
      "type": "Feature",
      "geometry": {
        "type": "Point",
        "coordinates": [
          135.5308,
          34.6652
        ]
      },
      "properties": {
        "station_name": "鶴橋",
        "line_name": "大阪線",
        "operator_name": "近畿日本鉄道",
        "prefecture": "",
        "ridership": 137399,
        "year": 2023
      }
    },
    {
      "type": "Feature",
      "geometry": {
        "type": "Point",
        "coordinates": [
          139.7537,
          35.702
        ]
      },
      "properties": {
        "station_name": "水道橋",
        "line_name": "中央線",
        "operator_name": "JR東日本",
        "prefecture": "",
        "ridership": 137154,
        "year": 2023
      }
    },
    {
      "type": "Feature",
      "geometry": {
        "type": "Point",
        "coordinates": [
          136.9008,
          35.1433
        ]
      },
      "properties": {
        "station_name": "金山",
        "line_name": "中央線",
        "operator_name": "JR東海",
        "prefecture": "",
        "ridership": 137001,
        "year": 2023
      }
    },
    {
      "type": "Feature",
      "geometry": {
        "type": "Point",
        "coordinates": [
          139.7623,
          35.676
        ]
      },
      "properties": {
        "station_name": "有楽町",
        "line_name": "有楽町線",
        "operator_name": "東京メトロ",
        "prefecture": "",
        "ridership": 134610,
        "year": 2023
      }
    },
    {
      "type": "Feature",
      "geometry": {
        "type": "Point",
        "coordinates": [
          139.8268,
          35.646
        ]
      },
      "properties": {
        "station_name": "新木場",
        "line_name": "京葉線",
        "operator_name": "JR東日本",
        "prefecture": "",
        "ridership": 134412,
        "year": 2023
      }
    },
    {
      "type": "Feature",
      "geometry": {
        "type": "Point",
        "coordinates": [
          139.3911,
          35.4529
        ]
      },
      "properties": {
        "station_name": "海老名",
        "line_name": "小田原線",
        "operator_name": "小田急電鉄",
        "prefecture": "",
        "ridership": 132467,
        "year": 2023
      }
    },
    {
      "type": "Feature",
      "geometry": {
        "type": "Point",
        "coordinates": [
          139.6687,
          35.6073
        ]
      },
      "properties": {
        "station_name": "自由が丘",
        "line_name": "東横線",
        "operator_name": "東急電鉄",
        "prefecture": "",
        "ridership": 132419,
        "year": 2023
      }
    },
    {
      "type": "Feature",
      "geometry": {
        "type": "Point",
        "coordinates": [
          139.7436,
          35.7002
        ]
      },
      "properties": {
        "station_name": "飯田橋",
        "line_name": "中央線",
        "operator_name": "JR東日本",
        "prefecture": "",
        "ridership": 132038,
        "year": 2023
      }
    },
    {
      "type": "Feature",
      "geometry": {
        "type": "Point",
        "coordinates": [
          139.5872,
          35.8155
        ]
      },
      "properties": {
        "station_name": "北朝霞",
        "line_name": "武蔵野線",
        "operator_name": "JR東日本",
        "prefecture": "",
        "ridership": 131776,
        "year": 2023
      }
    },
    {
      "type": "Feature",
      "geometry": {
        "type": "Point",
        "coordinates": [
          139.7404,
          35.7337
        ]
      },
      "properties": {
        "station_name": "巣鴨",
        "line_name": "山手線",
        "operator_name": "JR東日本",
        "prefecture": "",
        "ridership": 131550,
        "year": 2023
      }
    },
    {
      "type": "Feature",
      "geometry": {
        "type": "Point",
        "coordinates": [
          130.3986,
          33.5913
        ]
      },
      "properties": {
        "station_name": "天神",
        "line_name": "(空港線)",
        "operator_name": "福岡市",
        "prefecture": "",
        "ridership": 131250,
        "year": 2023
      }
    },
    {
      "type": "Feature",
      "geometry": {
        "type": "Point",
        "coordinates": [
          139.7583,
          35.695
        ]
      },
      "properties": {
        "station_name": "神保町",
        "line_name": "三田線",
        "operator_name": "東京都",
        "prefecture": "",
        "ridership": 130940,
        "year": 2023
      }
    },
    {
      "type": "Feature",
      "geometry": {
        "type": "Point",
        "coordinates": [
          133.9183,
          34.667
        ]
      },
      "properties": {
        "station_name": "岡山",
        "line_name": "山陽線",
        "operator_name": "JR西日本",
        "prefecture": "",
        "ridership": 130676,
        "year": 2023
      }
    },
    {
      "type": "Feature",
      "geometry": {
        "type": "Point",
        "coordinates": [
          139.7027,
          35.6713
        ]
      },
      "properties": {
        "station_name": "原宿",
        "line_name": "山手線",
        "operator_name": "JR東日本",
        "prefecture": "",
        "ridership": 129970,
        "year": 2023
      }
    },
    {
      "type": "Feature",
      "geometry": {
        "type": "Point",
        "coordinates": [
          135.5323,
          34.6972
        ]
      },
      "properties": {
        "station_name": "京橋",
        "line_name": "京阪本線",
        "operator_name": "京阪電気鉄道",
        "prefecture": "",
        "ridership": 129938,
        "year": 2023
      }
    },
    {
      "type": "Feature",
      "geometry": {
        "type": "Point",
        "coordinates": [
          139.7511,
          35.6739
        ]
      },
      "properties": {
        "station_name": "霞ヶ関",
        "line_name": "日比谷線",
        "operator_name": "東京メトロ",
        "prefecture": "",
        "ridership": 128553,
        "year": 2023
      }
    },
    {
      "type": "Feature",
      "geometry": {
        "type": "Point",
        "coordinates": [
          135.7599,
          34.9866
        ]
      },
      "properties": {
        "station_name": "京都",
        "line_name": "烏丸線",
        "operator_name": "京都市",
        "prefecture": "",
        "ridership": 128441,
        "year": 2023
      }
    },
    {
      "type": "Feature",
      "geometry": {
        "type": "Point",
        "coordinates": [
          139.7365,
          35.693
        ]
      },
      "properties": {
        "station_name": "市ヶ谷",
        "line_name": "南北線",
        "operator_name": "東京メトロ",
        "prefecture": "",
        "ridership": 127095,
        "year": 2023
      }
    },
    {
      "type": "Feature",
      "geometry": {
        "type": "Point",
        "coordinates": [
          139.5966,
          35.4093
        ]
      },
      "properties": {
        "station_name": "上大岡",
        "line_name": "本線",
        "operator_name": "京浜急行電鉄",
        "prefecture": "",
        "ridership": 126210,
        "year": 2023
      }
    },
    {
      "type": "Feature",
      "geometry": {
        "type": "Point",
        "coordinates": [
          139.5803,
          35.7023
        ]
      },
      "properties": {
        "station_name": "吉祥寺",
        "line_name": "井の頭線",
        "operator_name": "京王電鉄",
        "prefecture": "",
        "ridership": 126063,
        "year": 2023
      }
    },
    {
      "type": "Feature",
      "geometry": {
        "type": "Point",
        "coordinates": [
          139.4942,
          35.5318
        ]
      },
      "properties": {
        "station_name": "長津田",
        "line_name": "田園都市線",
        "operator_name": "東急電鉄",
        "prefecture": "",
        "ridership": 125406,
        "year": 2023
      }
    },
    {
      "type": "Feature",
      "geometry": {
        "type": "Point",
        "coordinates": [
          139.6173,
          35.509
        ]
      },
      "properties": {
        "station_name": "新横浜",
        "line_name": "相鉄新横浜線",
        "operator_name": "相模鉄道",
        "prefecture": "",
        "ridership": 124884,
        "year": 2023
      }
    },
    {
      "type": "Feature",
      "geometry": {
        "type": "Point",
        "coordinates": [
          139.6243,
          35.9078
        ]
      },
      "properties": {
        "station_name": "大宮",
        "line_name": "野田線",
        "operator_name": "東武鉄道",
        "prefecture": "",
        "ridership": 124558,
        "year": 2023
      }
    },
    {
      "type": "Feature",
      "geometry": {
        "type": "Point",
        "coordinates": [
          139.3644,
          35.4392
        ]
      },
      "properties": {
        "station_name": "本厚木",
        "line_name": "小田原線",
        "operator_name": "小田急電鉄",
        "prefecture": "",
        "ridership": 123159,
        "year": 2023
      }
    },
    {
      "type": "Feature",
      "geometry": {
        "type": "Point",
        "coordinates": [
          139.6201,
          35.4654
        ]
      },
      "properties": {
        "station_name": "横浜",
        "line_name": "",
        "operator_name": "横浜市",
        "prefecture": "",
        "ridership": 122858,
        "year": 2023
      }
    },
    {
      "type": "Feature",
      "geometry": {
        "type": "Point",
        "coordinates": [
          139.5436,
          35.7021
        ]
      },
      "properties": {
        "station_name": "武蔵境",
        "line_name": "中央線",
        "operator_name": "JR東日本",
        "prefecture": "",
        "ridership": 122852,
        "year": 2023
      }
    },
    {
      "type": "Feature",
      "geometry": {
        "type": "Point",
        "coordinates": [
          135.5018,
          34.6499
        ]
      },
      "properties": {
        "station_name": "新今宮",
        "line_name": "大阪環状線",
        "operator_name": "JR西日本",
        "prefecture": "",
        "ridership": 121968,
        "year": 2023
      }
    },
    {
      "type": "Feature",
      "geometry": {
        "type": "Point",
        "coordinates": [
          139.7747,
          35.7072
        ]
      },
      "properties": {
        "station_name": "御徒町",
        "line_name": "東北線",
        "operator_name": "JR東日本",
        "prefecture": "",
        "ridership": 121704,
        "year": 2023
      }
    },
    {
      "type": "Feature",
      "geometry": {
        "type": "Point",
        "coordinates": [
          135.1924,
          34.6939
        ]
      },
      "properties": {
        "station_name": "三宮",
        "line_name": "山手線",
        "operator_name": "神戸市",
        "prefecture": "",
        "ridership": 120008,
        "year": 2023
      }
    },
    {
      "type": "Feature",
      "geometry": {
        "type": "Point",
        "coordinates": [
          139.7009,
          35.533
        ]
      },
      "properties": {
        "station_name": "京急川崎",
        "line_name": "本線",
        "operator_name": "京浜急行電鉄",
        "prefecture": "",
        "ridership": 119655,
        "year": 2023
      }
    },
    {
      "type": "Feature",
      "geometry": {
        "type": "Point",
        "coordinates": [
          139.345,
          35.5949
        ]
      },
      "properties": {
        "station_name": "橋本",
        "line_name": "横浜線",
        "operator_name": "JR東日本",
        "prefecture": "",
        "ridership": 119192,
        "year": 2023
      }
    },
    {
      "type": "Feature",
      "geometry": {
        "type": "Point",
        "coordinates": [
          139.6673,
          35.6614
        ]
      },
      "properties": {
        "station_name": "下北沢",
        "line_name": "小田原線",
        "operator_name": "小田急電鉄",
        "prefecture": "",
        "ridership": 118852,
        "year": 2023
      }
    },
    {
      "type": "Feature",
      "geometry": {
        "type": "Point",
        "coordinates": [
          130.3994,
          33.5895
        ]
      },
      "properties": {
        "station_name": "西鉄福岡（天神）",
        "line_name": "天神大牟田線",
        "operator_name": "西日本鉄道",
        "prefecture": "",
        "ridership": 117918,
        "year": 2023
      }
    },
    {
      "type": "Feature",
      "geometry": {
        "type": "Point",
        "coordinates": [
          139.8818,
          35.7333
        ]
      },
      "properties": {
        "station_name": "小岩",
        "line_name": "総武線",
        "operator_name": "JR東日本",
        "prefecture": "",
        "ridership": 116612,
        "year": 2023
      }
    },
    {
      "type": "Feature",
      "geometry": {
        "type": "Point",
        "coordinates": [
          139.7743,
          35.699
        ]
      },
      "properties": {
        "station_name": "秋葉原",
        "line_name": "常磐新線",
        "operator_name": "首都圏新都市鉄道",
        "prefecture": "",
        "ridership": 116600,
        "year": 2023
      }
    },
    {
      "type": "Feature",
      "geometry": {
        "type": "Point",
        "coordinates": [
          139.5535,
          35.5688
        ]
      },
      "properties": {
        "station_name": "あざみ野",
        "line_name": "田園都市線",
        "operator_name": "東急電鉄",
        "prefecture": "",
        "ridership": 116404,
        "year": 2023
      }
    },
    {
      "type": "Feature",
      "geometry": {
        "type": "Point",
        "coordinates": [
          139.6544,
          35.7379
        ]
      },
      "properties": {
        "station_name": "練馬",
        "line_name": "池袋線",
        "operator_name": "西武鉄道",
        "prefecture": "",
        "ridership": 116257,
        "year": 2023
      }
    },
    {
      "type": "Feature",
      "geometry": {
        "type": "Point",
        "coordinates": [
          139.5447,
          35.6518
        ]
      },
      "properties": {
        "station_name": "調布",
        "line_name": "京王線",
        "operator_name": "京王電鉄",
        "prefecture": "",
        "ridership": 115507,
        "year": 2023
      }
    },
    {
      "type": "Feature",
      "geometry": {
        "type": "Point",
        "coordinates": [
          139.4379,
          35.5322
        ]
      },
      "properties": {
        "station_name": "相模大野",
        "line_name": "小田原線",
        "operator_name": "小田急電鉄",
        "prefecture": "",
        "ridership": 115246,
        "year": 2023
      }
    },
    {
      "type": "Feature",
      "geometry": {
        "type": "Point",
        "coordinates": [
          135.6171,
          34.8512
        ]
      },
      "properties": {
        "station_name": "高槻",
        "line_name": "東海道線",
        "operator_name": "JR西日本",
        "prefecture": "",
        "ridership": 114970,
        "year": 2023
      }
    },
    {
      "type": "Feature",
      "geometry": {
        "type": "Point",
        "coordinates": [
          139.483,
          35.9074
        ]
      },
      "properties": {
        "station_name": "川越",
        "line_name": "東上本線",
        "operator_name": "東武鉄道",
        "prefecture": "",
        "ridership": 114751,
        "year": 2023
      }
    },
    {
      "type": "Feature",
      "geometry": {
        "type": "Point",
        "coordinates": [
          139.7382,
          35.7523
        ]
      },
      "properties": {
        "station_name": "王子",
        "line_name": "東北線",
        "operator_name": "JR東日本",
        "prefecture": "",
        "ridership": 113878,
        "year": 2023
      }
    },
    {
      "type": "Feature",
      "geometry": {
        "type": "Point",
        "coordinates": [
          139.734,
          35.6077
        ]
      },
      "properties": {
        "station_name": "大井町",
        "line_name": "大井町線",
        "operator_name": "東急電鉄",
        "prefecture": "",
        "ridership": 112975,
        "year": 2023
      }
    },
    {
      "type": "Feature",
      "geometry": {
        "type": "Point",
        "coordinates": [
          139.5075,
          35.6037
        ]
      },
      "properties": {
        "station_name": "新百合ヶ丘",
        "line_name": "小田原線",
        "operator_name": "小田急電鉄",
        "prefecture": "",
        "ridership": 112951,
        "year": 2023
      }
    },
    {
      "type": "Feature",
      "geometry": {
        "type": "Point",
        "coordinates": [
          139.9844,
          35.7021
        ]
      },
      "properties": {
        "station_name": "船橋",
        "line_name": "野田線",
        "operator_name": "東武鉄道",
        "prefecture": "",
        "ridership": 112702,
        "year": 2023
      }
    },
    {
      "type": "Feature",
      "geometry": {
        "type": "Point",
        "coordinates": [
          139.73,
          35.6843
        ]
      },
      "properties": {
        "station_name": "四ツ谷",
        "line_name": "丸ノ内線",
        "operator_name": "東京メトロ",
        "prefecture": "",
        "ridership": 111376,
        "year": 2023
      }
    },
    {
      "type": "Feature",
      "geometry": {
        "type": "Point",
        "coordinates": [
          139.8177,
          35.6696
        ]
      },
      "properties": {
        "station_name": "東陽町",
        "line_name": "東西線",
        "operator_name": "東京メトロ",
        "prefecture": "",
        "ridership": 111204,
        "year": 2023
      }
    },
    {
      "type": "Feature",
      "geometry": {
        "type": "Point",
        "coordinates": [
          139.4459,
          35.3368
        ]
      },
      "properties": {
        "station_name": "辻堂",
        "line_name": "東海道線",
        "operator_name": "JR東日本",
        "prefecture": "",
        "ridership": 110776,
        "year": 2023
      }
    },
    {
      "type": "Feature",
      "geometry": {
        "type": "Point",
        "coordinates": [
          139.3495,
          35.3275
        ]
      },
      "properties": {
        "station_name": "平塚",
        "line_name": "東海道線",
        "operator_name": "JR東日本",
        "prefecture": "",
        "ridership": 110712,
        "year": 2023
      }
    },
    {
      "type": "Feature",
      "geometry": {
        "type": "Point",
        "coordinates": [
          139.5059,
          35.701
        ]
      },
      "properties": {
        "station_name": "武蔵小金井",
        "line_name": "中央線",
        "operator_name": "JR東日本",
        "prefecture": "",
        "ridership": 110668,
        "year": 2023
      }
    },
    {
      "type": "Feature",
      "geometry": {
        "type": "Point",
        "coordinates": [
          139.7734,
          35.6849
        ]
      },
      "properties": {
        "station_name": "三越前",
        "line_name": "半蔵門線",
        "operator_name": "東京メトロ",
        "prefecture": "",
        "ridership": 110666,
        "year": 2023
      }
    },
    {
      "type": "Feature",
      "geometry": {
        "type": "Point",
        "coordinates": [
          139.4615,
          35.4698
        ]
      },
      "properties": {
        "station_name": "大和",
        "line_name": "江ノ島線",
        "operator_name": "小田急電鉄",
        "prefecture": "",
        "ridership": 110623,
        "year": 2023
      }
    },
    {
      "type": "Feature",
      "geometry": {
        "type": "Point",
        "coordinates": [
          139.4953,
          35.5316
        ]
      },
      "properties": {
        "station_name": "長津田",
        "line_name": "横浜線",
        "operator_name": "JR東日本",
        "prefecture": "",
        "ridership": 110574,
        "year": 2023
      }
    },
    {
      "type": "Feature",
      "geometry": {
        "type": "Point",
        "coordinates": [
          140.042,
          35.6484
        ]
      },
      "properties": {
        "station_name": "海浜幕張",
        "line_name": "京葉線",
        "operator_name": "JR東日本",
        "prefecture": "",
        "ridership": 110392,
        "year": 2023
      }
    },
    {
      "type": "Feature",
      "geometry": {
        "type": "Point",
        "coordinates": [
          139.9082,
          35.7289
        ]
      },
      "properties": {
        "station_name": "市川",
        "line_name": "総武線",
        "operator_name": "JR東日本",
        "prefecture": "",
        "ridership": 109782,
        "year": 2023
      }
    },
    {
      "type": "Feature",
      "geometry": {
        "type": "Point",
        "coordinates": [
          139.7022,
          35.6838
        ]
      },
      "properties": {
        "station_name": "代々木",
        "line_name": "中央線",
        "operator_name": "JR東日本",
        "prefecture": "",
        "ridership": 109408,
        "year": 2023
      }
    },
    {
      "type": "Feature",
      "geometry": {
        "type": "Point",
        "coordinates": [
          139.4806,
          35.7001
        ]
      },
      "properties": {
        "station_name": "国分寺",
        "line_name": "国分寺線",
        "operator_name": "西武鉄道",
        "prefecture": "",
        "ridership": 108271,
        "year": 2023
      }
    },
    {
      "type": "Feature",
      "geometry": {
        "type": "Point",
        "coordinates": [
          138.3889,
          34.9718
        ]
      },
      "properties": {
        "station_name": "静岡",
        "line_name": "東海道線",
        "operator_name": "JR東海",
        "prefecture": "",
        "ridership": 107931,
        "year": 2023
      }
    },
    {
      "type": "Feature",
      "geometry": {
        "type": "Point",
        "coordinates": [
          139.9274,
          35.7208
        ]
      },
      "properties": {
        "station_name": "本八幡",
        "line_name": "総武線",
        "operator_name": "JR東日本",
        "prefecture": "",
        "ridership": 107904,
        "year": 2023
      }
    },
    {
      "type": "Feature",
      "geometry": {
        "type": "Point",
        "coordinates": [
          139.6904,
          35.8279
        ]
      },
      "properties": {
        "station_name": "蕨",
        "line_name": "東北線",
        "operator_name": "JR東日本",
        "prefecture": "",
        "ridership": 107842,
        "year": 2023
      }
    },
    {
      "type": "Feature",
      "geometry": {
        "type": "Point",
        "coordinates": [
          139.6689,
          35.8476
        ]
      },
      "properties": {
        "station_name": "南浦和",
        "line_name": "武蔵野線",
        "operator_name": "JR東日本",
        "prefecture": "",
        "ridership": 107616,
        "year": 2023
      }
    },
    {
      "type": "Feature",
      "geometry": {
        "type": "Point",
        "coordinates": [
          139.3922,
          35.4534
        ]
      },
      "properties": {
        "station_name": "海老名",
        "line_name": "相鉄本線",
        "operator_name": "相模鉄道",
        "prefecture": "",
        "ridership": 107473,
        "year": 2023
      }
    },
    {
      "type": "Feature",
      "geometry": {
        "type": "Point",
        "coordinates": [
          139.7755,
          35.6979
        ]
      },
      "properties": {
        "station_name": "秋葉原",
        "line_name": "日比谷線",
        "operator_name": "東京メトロ",
        "prefecture": "",
        "ridership": 107333,
        "year": 2023
      }
    },
    {
      "type": "Feature",
      "geometry": {
        "type": "Point",
        "coordinates": [
          135.1952,
          34.6938
        ]
      },
      "properties": {
        "station_name": "神戸三宮",
        "line_name": "本線",
        "operator_name": "阪神電気鉄道",
        "prefecture": "",
        "ridership": 107270,
        "year": 2023
      }
    },
    {
      "type": "Feature",
      "geometry": {
        "type": "Point",
        "coordinates": [
          139.461,
          35.4699
        ]
      },
      "properties": {
        "station_name": "大和",
        "line_name": "相鉄本線",
        "operator_name": "相模鉄道",
        "prefecture": "",
        "ridership": 107157,
        "year": 2023
      }
    },
    {
      "type": "Feature",
      "geometry": {
        "type": "Point",
        "coordinates": [
          139.6666,
          35.6616
        ]
      },
      "properties": {
        "station_name": "下北沢",
        "line_name": "井の頭線",
        "operator_name": "京王電鉄",
        "prefecture": "",
        "ridership": 107115,
        "year": 2023
      }
    },
    {
      "type": "Feature",
      "geometry": {
        "type": "Point",
        "coordinates": [
          139.7828,
          35.6921
        ]
      },
      "properties": {
        "station_name": "馬喰横山",
        "line_name": "新宿線",
        "operator_name": "東京都",
        "prefecture": "",
        "ridership": 106131,
        "year": 2023
      }
    },
    {
      "type": "Feature",
      "geometry": {
        "type": "Point",
        "coordinates": [
          135.4956,
          34.6994
        ]
      },
      "properties": {
        "station_name": "西梅田",
        "line_name": "(四つ橋線)",
        "operator_name": "大阪市高速電気軌道",
        "prefecture": "",
        "ridership": 106000,
        "year": 2023
      }
    },
    {
      "type": "Feature",
      "geometry": {
        "type": "Point",
        "coordinates": [
          139.7793,
          35.6803
        ]
      },
      "properties": {
        "station_name": "茅場町",
        "line_name": "東西線",
        "operator_name": "東京メトロ",
        "prefecture": "",
        "ridership": 105877,
        "year": 2023
      }
    },
    {
      "type": "Feature",
      "geometry": {
        "type": "Point",
        "coordinates": [
          139.7044,
          35.8155
        ]
      },
      "properties": {
        "station_name": "西川口",
        "line_name": "東北線",
        "operator_name": "JR東日本",
        "prefecture": "",
        "ridership": 105842,
        "year": 2023
      }
    },
    {
      "type": "Feature",
      "geometry": {
        "type": "Point",
        "coordinates": [
          139.8263,
          35.6973
        ]
      },
      "properties": {
        "station_name": "亀戸",
        "line_name": "総武線",
        "operator_name": "JR東日本",
        "prefecture": "",
        "ridership": 105714,
        "year": 2023
      }
    },
    {
      "type": "Feature",
      "geometry": {
        "type": "Point",
        "coordinates": [
          139.6339,
          35.8936
        ]
      },
      "properties": {
        "station_name": "さいたま新都心",
        "line_name": "東北線",
        "operator_name": "JR東日本",
        "prefecture": "",
        "ridership": 105244,
        "year": 2023
      }
    },
    {
      "type": "Feature",
      "geometry": {
        "type": "Point",
        "coordinates": [
          139.7312,
          35.6628
        ]
      },
      "properties": {
        "station_name": "六本木",
        "line_name": "日比谷線",
        "operator_name": "東京メトロ",
        "prefecture": "",
        "ridership": 105196,
        "year": 2023
      }
    },
    {
      "type": "Feature",
      "geometry": {
        "type": "Point",
        "coordinates": [
          139.7279,
          35.7318
        ]
      },
      "properties": {
        "station_name": "大塚",
        "line_name": "山手線",
        "operator_name": "JR東日本",
        "prefecture": "",
        "ridership": 104504,
        "year": 2023
      }
    },
    {
      "type": "Feature",
      "geometry": {
        "type": "Point",
        "coordinates": [
          135.1782,
          34.6792
        ]
      },
      "properties": {
        "station_name": "神戸",
        "line_name": "東海道線",
        "operator_name": "JR西日本",
        "prefecture": "",
        "ridership": 103098,
        "year": 2023
      }
    },
    {
      "type": "Feature",
      "geometry": {
        "type": "Point",
        "coordinates": [
          139.4074,
          35.3304
        ]
      },
      "properties": {
        "station_name": "茅ヶ崎",
        "line_name": "東海道線",
        "operator_name": "JR東日本",
        "prefecture": "",
        "ridership": 103016,
        "year": 2023
      }
    },
    {
      "type": "Feature",
      "geometry": {
        "type": "Point",
        "coordinates": [
          135.5069,
          34.6819
        ]
      },
      "properties": {
        "station_name": "堺筋本町",
        "line_name": "(中央線)",
        "operator_name": "大阪市高速電気軌道",
        "prefecture": "",
        "ridership": 102225,
        "year": 2023
      }
    },
    {
      "type": "Feature",
      "geometry": {
        "type": "Point",
        "coordinates": [
          139.5565,
          35.43
        ]
      },
      "properties": {
        "station_name": "東戸塚",
        "line_name": "東海道線",
        "operator_name": "JR東日本",
        "prefecture": "",
        "ridership": 102066,
        "year": 2023
      }
    },
    {
      "type": "Feature",
      "geometry": {
        "type": "Point",
        "coordinates": [
          139.7978,
          35.7107
        ]
      },
      "properties": {
        "station_name": "浅草",
        "line_name": "銀座線",
        "operator_name": "東京メトロ",
        "prefecture": "",
        "ridership": 101926,
        "year": 2023
      }
    },
    {
      "type": "Feature",
      "geometry": {
        "type": "Point",
        "coordinates": [
          139.7962,
          35.6718
        ]
      },
      "properties": {
        "station_name": "門前仲町",
        "line_name": "東西線",
        "operator_name": "東京メトロ",
        "prefecture": "",
        "ridership": 101848,
        "year": 2023
      }
    },
    {
      "type": "Feature",
      "geometry": {
        "type": "Point",
        "coordinates": [
          135.7596,
          35.0102
        ]
      },
      "properties": {
        "station_name": "烏丸御池",
        "line_name": "烏丸線",
        "operator_name": "京都市",
        "prefecture": "",
        "ridership": 101567,
        "year": 2023
      }
    },
    {
      "type": "Feature",
      "geometry": {
        "type": "Point",
        "coordinates": [
          139.786,
          35.5498
        ]
      },
      "properties": {
        "station_name": "羽田空港第1・第2ターミナル",
        "line_name": "空港線",
        "operator_name": "京浜急行電鉄",
        "prefecture": "",
        "ridership": 101471,
        "year": 2023
      }
    },
    {
      "type": "Feature",
      "geometry": {
        "type": "Point",
        "coordinates": [
          135.7597,
          35.0028
        ]
      },
      "properties": {
        "station_name": "四条",
        "line_name": "烏丸線",
        "operator_name": "京都市",
        "prefecture": "",
        "ridership": 101362,
        "year": 2023
      }
    },
    {
      "type": "Feature",
      "geometry": {
        "type": "Point",
        "coordinates": [
          139.4734,
          35.7867
        ]
      },
      "properties": {
        "station_name": "所沢",
        "line_name": "池袋線",
        "operator_name": "西武鉄道",
        "prefecture": "",
        "ridership": 101123,
        "year": 2023
      }
    },
    {
      "type": "Feature",
      "geometry": {
        "type": "Point",
        "coordinates": [
          139.636,
          35.4442
        ]
      },
      "properties": {
        "station_name": "関内",
        "line_name": "根岸線",
        "operator_name": "JR東日本",
        "prefecture": "",
        "ridership": 100954,
        "year": 2023
      }
    },
    {
      "type": "Feature",
      "geometry": {
        "type": "Point",
        "coordinates": [
          139.9125,
          35.6495
        ]
      },
      "properties": {
        "station_name": "新浦安",
        "line_name": "京葉線",
        "operator_name": "JR東日本",
        "prefecture": "",
        "ridership": 100760,
        "year": 2023
      }
    },
    {
      "type": "Feature",
      "geometry": {
        "type": "Point",
        "coordinates": [
          139.8052,
          35.7499
        ]
      },
      "properties": {
        "station_name": "北千住",
        "line_name": "常磐新線",
        "operator_name": "首都圏新都市鉄道",
        "prefecture": "",
        "ridership": 100600,
        "year": 2023
      }
    },
    {
      "type": "Feature",
      "geometry": {
        "type": "Point",
        "coordinates": [
          139.7626,
          35.6841
        ]
      },
      "properties": {
        "station_name": "大手町",
        "line_name": "三田線",
        "operator_name": "東京都",
        "prefecture": "",
        "ridership": 100353,
        "year": 2023
      }
    },
    {
      "type": "Feature",
      "geometry": {
        "type": "Point",
        "coordinates": [
          139.8149,
          35.6977
        ]
      },
      "properties": {
        "station_name": "錦糸町",
        "line_name": "半蔵門線",
        "operator_name": "東京メトロ",
        "prefecture": "",
        "ridership": 100039,
        "year": 2023
      }
    },
    {
      "type": "Feature",
      "geometry": {
        "type": "Point",
        "coordinates": [
          139.7493,
          35.6478
        ]
      },
      "properties": {
        "station_name": "三田",
        "line_name": "浅草線",
        "operator_name": "東京都",
        "prefecture": "",
        "ridership": 99494,
        "year": 2023
      }
    },
    {
      "type": "Feature",
      "geometry": {
        "type": "Point",
        "coordinates": [
          139.7511,
          35.7073
        ]
      },
      "properties": {
        "station_name": "後楽園",
        "line_name": "丸ノ内線",
        "operator_name": "東京メトロ",
        "prefecture": "",
        "ridership": 99051,
        "year": 2023
      }
    },
    {
      "type": "Feature",
      "geometry": {
        "type": "Point",
        "coordinates": [
          139.7353,
          35.6912
        ]
      },
      "properties": {
        "station_name": "市ヶ谷",
        "line_name": "中央線",
        "operator_name": "JR東日本",
        "prefecture": "",
        "ridership": 98948,
        "year": 2023
      }
    },
    {
      "type": "Feature",
      "geometry": {
        "type": "Point",
        "coordinates": [
          139.7774,
          35.6755
        ]
      },
      "properties": {
        "station_name": "八丁堀",
        "line_name": "日比谷線",
        "operator_name": "東京メトロ",
        "prefecture": "",
        "ridership": 98923,
        "year": 2023
      }
    },
    {
      "type": "Feature",
      "geometry": {
        "type": "Point",
        "coordinates": [
          135.4971,
          34.7588
        ]
      },
      "properties": {
        "station_name": "江坂",
        "line_name": "(御堂筋線)",
        "operator_name": "大阪市高速電気軌道",
        "prefecture": "",
        "ridership": 98851,
        "year": 2023
      }
    },
    {
      "type": "Feature",
      "geometry": {
        "type": "Point",
        "coordinates": [
          139.7086,
          35.6469
        ]
      },
      "properties": {
        "station_name": "恵比寿",
        "line_name": "日比谷線",
        "operator_name": "東京メトロ",
        "prefecture": "",
        "ridership": 98329,
        "year": 2023
      }
    },
    {
      "type": "Feature",
      "geometry": {
        "type": "Point",
        "coordinates": [
          139.8666,
          35.7509
        ]
      },
      "properties": {
        "station_name": "京成高砂",
        "line_name": "本線",
        "operator_name": "京成電鉄",
        "prefecture": "",
        "ridership": 97368,
        "year": 2023
      }
    },
    {
      "type": "Feature",
      "geometry": {
        "type": "Point",
        "coordinates": [
          139.6479,
          35.846
        ]
      },
      "properties": {
        "station_name": "武蔵浦和",
        "line_name": "武蔵野線",
        "operator_name": "JR東日本",
        "prefecture": "",
        "ridership": 97354,
        "year": 2023
      }
    },
    {
      "type": "Feature",
      "geometry": {
        "type": "Point",
        "coordinates": [
          134.6908,
          34.8267
        ]
      },
      "properties": {
        "station_name": "姫路",
        "line_name": "山陽線",
        "operator_name": "JR西日本",
        "prefecture": "",
        "ridership": 97078,
        "year": 2023
      }
    },
    {
      "type": "Feature",
      "geometry": {
        "type": "Point",
        "coordinates": [
          139.5173,
          35.5429
        ]
      },
      "properties": {
        "station_name": "青葉台",
        "line_name": "田園都市線",
        "operator_name": "東急電鉄",
        "prefecture": "",
        "ridership": 96457,
        "year": 2023
      }
    },
    {
      "type": "Feature",
      "geometry": {
        "type": "Point",
        "coordinates": [
          139.7038,
          35.6692
        ]
      },
      "properties": {
        "station_name": "明治神宮前",
        "line_name": "千代田線",
        "operator_name": "東京メトロ",
        "prefecture": "",
        "ridership": 96345,
        "year": 2023
      }
    },
    {
      "type": "Feature",
      "geometry": {
        "type": "Point",
        "coordinates": [
          139.7845,
          35.6974
        ]
      },
      "properties": {
        "station_name": "浅草橋",
        "line_name": "総武線",
        "operator_name": "JR東日本",
        "prefecture": "",
        "ridership": 96108,
        "year": 2023
      }
    },
    {
      "type": "Feature",
      "geometry": {
        "type": "Point",
        "coordinates": [
          139.8704,
          35.7695
        ]
      },
      "properties": {
        "station_name": "金町",
        "line_name": "常磐線",
        "operator_name": "JR東日本",
        "prefecture": "",
        "ridership": 95976,
        "year": 2023
      }
    },
    {
      "type": "Feature",
      "geometry": {
        "type": "Point",
        "coordinates": [
          139.8723,
          35.6636
        ]
      },
      "properties": {
        "station_name": "葛西",
        "line_name": "東西線",
        "operator_name": "東京メトロ",
        "prefecture": "",
        "ridership": 95955,
        "year": 2023
      }
    },
    {
      "type": "Feature",
      "geometry": {
        "type": "Point",
        "coordinates": [
          139.7547,
          35.6567
        ]
      },
      "properties": {
        "station_name": "大門",
        "line_name": "浅草線",
        "operator_name": "東京都",
        "prefecture": "",
        "ridership": 95470,
        "year": 2023
      }
    },
    {
      "type": "Feature",
      "geometry": {
        "type": "Point",
        "coordinates": [
          139.6174,
          35.5068
        ]
      },
      "properties": {
        "station_name": "新横浜",
        "line_name": "横浜線",
        "operator_name": "JR東日本",
        "prefecture": "",
        "ridership": 95160,
        "year": 2023
      }
    },
    {
      "type": "Feature",
      "geometry": {
        "type": "Point",
        "coordinates": [
          139.7714,
          35.7281
        ]
      },
      "properties": {
        "station_name": "日暮里",
        "line_name": "本線",
        "operator_name": "京成電鉄",
        "prefecture": "",
        "ridership": 94963,
        "year": 2023
      }
    },
    {
      "type": "Feature",
      "geometry": {
        "type": "Point",
        "coordinates": [
          139.4451,
          35.5078
        ]
      },
      "properties": {
        "station_name": "中央林間",
        "line_name": "田園都市線",
        "operator_name": "東急電鉄",
        "prefecture": "",
        "ridership": 94391,
        "year": 2023
      }
    },
    {
      "type": "Feature",
      "geometry": {
        "type": "Point",
        "coordinates": [
          139.6458,
          35.8722
        ]
      },
      "properties": {
        "station_name": "北浦和",
        "line_name": "東北線",
        "operator_name": "JR東日本",
        "prefecture": "",
        "ridership": 94326,
        "year": 2023
      }
    },
    {
      "type": "Feature",
      "geometry": {
        "type": "Point",
        "coordinates": [
          139.8594,
          35.6646
        ]
      },
      "properties": {
        "station_name": "西葛西",
        "line_name": "東西線",
        "operator_name": "東京メトロ",
        "prefecture": "",
        "ridership": 94293,
        "year": 2023
      }
    },
    {
      "type": "Feature",
      "geometry": {
        "type": "Point",
        "coordinates": [
          139.4464,
          35.6992
        ]
      },
      "properties": {
        "station_name": "国立",
        "line_name": "中央線",
        "operator_name": "JR東日本",
        "prefecture": "",
        "ridership": 94190,
        "year": 2023
      }
    },
    {
      "type": "Feature",
      "geometry": {
        "type": "Point",
        "coordinates": [
          139.6313,
          35.5105
        ]
      },
      "properties": {
        "station_name": "菊名",
        "line_name": "東横線",
        "operator_name": "東急電鉄",
        "prefecture": "",
        "ridership": 94170,
        "year": 2023
      }
    },
    {
      "type": "Feature",
      "geometry": {
        "type": "Point",
        "coordinates": [
          139.5753,
          35.8222
        ]
      },
      "properties": {
        "station_name": "志木",
        "line_name": "東上本線",
        "operator_name": "東武鉄道",
        "prefecture": "",
        "ridership": 93798,
        "year": 2023
      }
    },
    {
      "type": "Feature",
      "geometry": {
        "type": "Point",
        "coordinates": [
          139.7241,
          35.6728
        ]
      },
      "properties": {
        "station_name": "青山一丁目",
        "line_name": "銀座線",
        "operator_name": "東京メトロ",
        "prefecture": "",
        "ridership": 93509,
        "year": 2023
      }
    },
    {
      "type": "Feature",
      "geometry": {
        "type": "Point",
        "coordinates": [
          139.7003,
          35.7009
        ]
      },
      "properties": {
        "station_name": "新大久保",
        "line_name": "山手線",
        "operator_name": "JR東日本",
        "prefecture": "",
        "ridership": 93452,
        "year": 2023
      }
    },
    {
      "type": "Feature",
      "geometry": {
        "type": "Point",
        "coordinates": [
          139.9008,
          35.7843
        ]
      },
      "properties": {
        "station_name": "松戸",
        "line_name": "新京成線",
        "operator_name": "新京成電鉄",
        "prefecture": "",
        "ridership": 93292,
        "year": 2023
      }
    },
    {
      "type": "Feature",
      "geometry": {
        "type": "Point",
        "coordinates": [
          139.7241,
          35.6251
        ]
      },
      "properties": {
        "station_name": "五反田",
        "line_name": "池上線",
        "operator_name": "東急電鉄",
        "prefecture": "",
        "ridership": 93047,
        "year": 2023
      }
    },
    {
      "type": "Feature",
      "geometry": {
        "type": "Point",
        "coordinates": [
          134.9932,
          34.649
        ]
      },
      "properties": {
        "station_name": "明石",
        "line_name": "山陽線",
        "operator_name": "JR西日本",
        "prefecture": "",
        "ridership": 93014,
        "year": 2023
      }
    },
    {
      "type": "Feature",
      "geometry": {
        "type": "Point",
        "coordinates": [
          136.8974,
          35.1692
        ]
      },
      "properties": {
        "station_name": "伏見",
        "line_name": "東山線",
        "operator_name": "名古屋市",
        "prefecture": "",
        "ridership": 92868,
        "year": 2023
      }
    },
    {
      "type": "Feature",
      "geometry": {
        "type": "Point",
        "coordinates": [
          139.6497,
          35.7053
        ]
      },
      "properties": {
        "station_name": "高円寺",
        "line_name": "中央線",
        "operator_name": "JR東日本",
        "prefecture": "",
        "ridership": 92138,
        "year": 2023
      }
    },
    {
      "type": "Feature",
      "geometry": {
        "type": "Point",
        "coordinates": [
          139.7501,
          35.6702
        ]
      },
      "properties": {
        "station_name": "虎ノ門",
        "line_name": "銀座線",
        "operator_name": "東京メトロ",
        "prefecture": "",
        "ridership": 91260,
        "year": 2023
      }
    },
    {
      "type": "Feature",
      "geometry": {
        "type": "Point",
        "coordinates": [
          139.8266,
          35.6458
        ]
      },
      "properties": {
        "station_name": "新木場",
        "line_name": "有楽町線",
        "operator_name": "東京メトロ",
        "prefecture": "",
        "ridership": 91236,
        "year": 2023
      }
    },
    {
      "type": "Feature",
      "geometry": {
        "type": "Point",
        "coordinates": [
          135.5004,
          34.6506
        ]
      },
      "properties": {
        "station_name": "新今宮",
        "line_name": "南海本線",
        "operator_name": "南海電気鉄道",
        "prefecture": "",
        "ridership": 91096,
        "year": 2023
      }
    },
    {
      "type": "Feature",
      "geometry": {
        "type": "Point",
        "coordinates": [
          135.5173,
          34.6819
        ]
      },
      "properties": {
        "station_name": "谷町四丁目",
        "line_name": "(谷町線)",
        "operator_name": "大阪市高速電気軌道",
        "prefecture": "",
        "ridership": 91038,
        "year": 2023
      }
    },
    {
      "type": "Feature",
      "geometry": {
        "type": "Point",
        "coordinates": [
          136.8837,
          35.1694
        ]
      },
      "properties": {
        "station_name": "近鉄名古屋",
        "line_name": "名古屋線",
        "operator_name": "近畿日本鉄道",
        "prefecture": "",
        "ridership": 90883,
        "year": 2023
      }
    },
    {
      "type": "Feature",
      "geometry": {
        "type": "Point",
        "coordinates": [
          139.6506,
          35.6684
        ]
      },
      "properties": {
        "station_name": "明大前",
        "line_name": "京王線",
        "operator_name": "京王電鉄",
        "prefecture": "",
        "ridership": 90831,
        "year": 2023
      }
    },
    {
      "type": "Feature",
      "geometry": {
        "type": "Point",
        "coordinates": [
          139.7607,
          35.6742
        ]
      },
      "properties": {
        "station_name": "日比谷",
        "line_name": "日比谷線",
        "operator_name": "東京メトロ",
        "prefecture": "",
        "ridership": 90430,
        "year": 2023
      }
    },
    {
      "type": "Feature",
      "geometry": {
        "type": "Point",
        "coordinates": [
          139.7567,
          35.6557
        ]
      },
      "properties": {
        "station_name": "モノレール浜松町",
        "line_name": "東京モノレール羽田線",
        "operator_name": "東京モノレール",
        "prefecture": "",
        "ridership": 90384,
        "year": 2023
      }
    },
    {
      "type": "Feature",
      "geometry": {
        "type": "Point",
        "coordinates": [
          140.0923,
          35.6377
        ]
      },
      "properties": {
        "station_name": "稲毛",
        "line_name": "総武線",
        "operator_name": "JR東日本",
        "prefecture": "",
        "ridership": 90328,
        "year": 2023
      }
    },
    {
      "type": "Feature",
      "geometry": {
        "type": "Point",
        "coordinates": [
          139.4441,
          35.508
        ]
      },